index,City,Latitude,Longitude,Temperature,Max Temp,Humidity,Wind Speed (mph),Cloudiness,Country
0,hithadhoo,-0.6,73.0833,84.07,84.07,71,7.31,72,MV
1,hami,42.8,93.45,75,75,13,7.63,2,CN
2,qui nhon,13.7667,109.2333,82.45,82.45,68,5.41,66,VN
3,cidreira,-30.1811,-50.2056,65.14,65.14,78,6.87,1,BR
4,khatanga,71.9667,102.5,32.2,32.2,93,6.96,100,RU
5,manzhouli,49.6,117.4333,37.65,37.65,60,4.23,95,CN
7,castro,-24.7911,-50.0119,50.59,50.59,96,4.99,1,BR
8,poum,-20.2333,164.0167,77.85,77.85,58,15.08,95,NC
9,port hedland,-20.3167,118.5667,89.6,89.6,23,9.22,0,AU
10,hilo,19.7297,-155.09,76.03,82.4,57,8.05,1,US
11,blythe,33.6103,-114.5964,96.8,96.8,7,8.05,1,US
12,jamestown,42.097,-79.2353,47.17,48,93,10.36,90,US
13,westport,41.1415,-73.3579,59.18,61,94,4.61,20,US
14,codrington,-38.2667,141.9667,72.25,72.25,39,10.16,0,AU
15,myitkyina,25.3833,97.4,89.56,89.56,36,0.69,15,MM
16,lumut,4.2323,100.6298,78.4,78.8,89,3.44,20,MY
17,atuona,-9.8,-139.0333,79.54,79.54,68,3.69,5,PF
18,port macquarie,-31.4333,152.9167,72.52,73,59,3.38,6,AU
20,thompson,55.7435,-97.8558,32,32,43,13.8,20,CA
21,guerrero negro,27.9769,-114.0611,65.14,65.14,67,16.13,0,MX
22,vaini,-21.2,-175.2,75.2,75.2,100,11.5,75,TO
23,fram,-26.9833,-55.8833,64.4,64.4,59,4.61,0,PY
25,acapulco,16.8634,-99.8901,80.6,80.6,83,12.66,75,MX
26,yellowknife,62.456,-114.3525,29.82,30.99,51,9.22,75,CA
27,iqaluit,63.7506,-68.5145,33.4,33.8,93,4.61,90,CA
28,bethel,41.3712,-73.414,63.81,68,77,5.75,75,US
29,upernavik,72.7868,-56.1549,24.55,24.55,63,3.74,100,GL
30,butaritari,3.0707,172.7902,83.88,83.88,71,13.2,100,KI
31,albany,42.6001,-73.9662,55.13,55.99,90,1.01,100,US
32,avarua,-21.2078,-159.775,84.2,84.2,79,9.22,75,CK
33,southbridge,42.0751,-72.0334,53.69,57.99,97,7.23,100,US
34,kangaatsiaq,68.3065,-53.4641,32.74,32.74,87,2.04,100,GL
35,hobart,-42.8794,147.3294,62.87,66,72,9.22,20,AU
36,saint-philippe,-21.3585,55.7679,73.02,75.2,78,10.36,90,RE
37,punta arenas,-53.15,-70.9167,42.39,42.8,93,12.66,90,CL
38,kapaa,22.0752,-159.319,76.82,78.8,57,9.22,20,US
39,tallahassee,30.4383,-84.2807,74.62,75.2,73,5.75,75,US
40,tasiilaq,65.6145,-37.6368,32,32,86,16.11,100,GL
41,pisco,-13.7,-76.2167,66.11,66.2,88,8.05,0,PE
42,seminole,28.7086,-81.2081,79.81,82.4,51,11.5,40,US
43,mindelo,16.8901,-24.9804,71.6,71.6,73,18.41,75,CV
44,mahebourg,-20.4081,57.7,77,77,83,8.05,75,MU
45,virden,39.5009,-89.7679,64.65,69.01,75,5.01,0,US
47,cayenne,4.9333,-52.3333,76.24,77,94,2.48,0,GF
48,samfya,-11.3649,29.5565,64.22,64.22,93,5.99,41,ZM
49,grafton,42.207,-71.6856,48.52,48.99,93,8.05,90,US
50,kasongo-lunda,-6.4667,16.8167,70.39,70.39,97,0.43,100,CD
51,georgiyevka,43.0369,74.7114,64.4,64.4,42,13.42,0,KZ
52,busselton,-33.65,115.3333,53.91,55,93,1.01,34,AU
53,kozhva,65.1073,57.0459,30.72,30.72,57,2.42,59,RU
54,souillac,-20.5167,57.5167,77,77,83,8.05,75,MU
55,taft,31.7471,54.2088,71.6,71.6,23,11.5,40,IR
56,kodiak,57.79,-152.4072,42.8,42.8,81,3.44,90,US
57,new norfolk,-42.7826,147.0587,62.94,66,61,5.01,8,AU
58,mar del plata,-38.0023,-57.5575,61.3,62.01,82,6.91,0,AR
59,kaitangata,-46.2817,169.8464,57.99,57.99,53,13,82,NZ
61,ribeira grande,38.5167,-28.7,57.54,57.54,64,8.86,100,PT
62,rusape,-18.5278,32.1284,57.81,57.81,91,4.14,5,ZW
63,iralaya,15,-83.2333,82.4,82.4,83,6.91,40,HN
64,sompeta,18.9333,84.6,84.4,84.4,70,10.87,0,IN
65,cabo san lucas,22.8909,-109.9124,75.97,77,38,11.5,1,MX
66,zhangye,38.9342,100.4517,66.9,66.9,17,0.65,0,CN
67,dunedin,-45.8742,170.5036,55.99,55.99,69,18.99,100,NZ
68,cape town,-33.9258,18.4232,55.56,59,93,5.75,0,ZA
69,vanino,49.0869,140.2543,37.11,37.11,88,6.42,100,RU
70,bhimunipatnam,17.8833,83.4333,78.8,78.8,89,3.44,40,IN
71,aklavik,68.2191,-135.0107,42.8,42.8,39,4.61,40,CA
72,mataura,-46.1927,168.8643,54,54,73,17,70,NZ
73,qaanaaq,77.484,-69.3632,25.99,25.99,64,9.48,100,GL
74,puerto ayora,-0.7393,-90.3518,75.78,75.78,83,7.18,12,EC
76,leh,34.1667,77.5833,37.81,37.81,53,0.34,12,IN
77,caraballeda,10.6112,-66.8522,71.35,75.2,88,3.62,40,VE
78,hermanus,-34.4187,19.2345,50,50,92,3.69,50,ZA
79,ushuaia,-54.8,-68.3,39.2,39.2,70,4.21,75,AR
80,kruisfontein,-34.0033,24.7314,55.99,55.99,94,1.01,100,ZA
81,rikitea,-23.1203,-134.9692,76.78,76.78,66,12.68,87,PF
82,tuy hoa,13.0833,109.3,83.43,83.43,69,6.08,54,VN
83,wattegama,6.7989,81.4808,78.91,78.91,82,1.68,97,LK
84,barrow,71.2906,-156.7887,19.4,19.4,86,5.75,90,US
85,villa carlos paz,-31.4241,-64.4978,58.1,64,72,4,0,AR
86,dikson,73.5069,80.5464,6.64,6.64,94,8.14,63,RU
87,yinchuan,38.4681,106.2731,63.23,63.23,24,6.04,5,CN
88,bud,39.447,-86.1758,54.68,55,83,6.26,2,US
89,belyy yar,53.6039,91.3903,42.8,42.8,100,2.24,75,RU
90,bluff,-46.6,168.3333,55,55,71,17,31,NZ
91,point pedro,9.8167,80.2333,83.17,83.17,76,5.99,25,LK
92,chenghai,23.4632,116.768,75.2,75.2,73,4.47,20,CN
94,jalu,29.0331,21.5482,78.91,78.91,15,12.24,2,LY
95,andenes,69.3143,16.1194,30.2,30.2,69,14.97,90,NO
96,gizo,-8.103,156.8419,83.03,83.03,73,4.36,65,SB
98,kousseri,12.0769,15.0306,86,86,23,13.8,71,CM
99,tuatapere,-46.1333,167.6833,55,55,71,17,60,NZ
100,carauari,-4.8828,-66.8958,73.08,73.08,98,1.99,100,BR
101,port alfred,-33.5906,26.891,62.8,62.8,72,14.25,100,ZA
102,port elizabeth,-33.918,25.5701,55.99,55.99,95,1.01,98,ZA
103,wufeng,27.45,104.8333,64.26,64.26,54,2.08,94,CN
104,hualmay,-11.0964,-77.6139,66.74,66.74,85,9.22,0,PE
105,araure,9.5601,-69.2148,69.8,69.8,100,6.91,100,VE
107,havre-saint-pierre,50.2334,-63.5986,39.2,39.2,93,4.61,90,CA
108,klaksvik,62.2266,-6.589,37.4,37.4,65,9.22,90,FO
109,key west,24.5557,-81.7826,79.59,80.6,74,11.5,1,US
110,nelson bay,-32.7167,152.15,68.68,69.8,68,4.61,40,AU
111,wanning,18.8003,110.3967,81,81,72,2.57,53,CN
112,airai,-8.9266,125.4092,71.17,71.17,65,3.15,16,TL
114,ponta do sol,32.6667,-17.1,51.49,57,77,3,29,PT
115,evanston,42.0411,-87.6901,55.24,57.2,67,11.5,40,US
116,vikhorevka,56.1201,101.1636,35.29,35.6,69,4.47,94,RU
117,te anau,-45.4167,167.7167,59.09,59.09,66,2.42,6,NZ
118,luderitz,-26.6481,15.1594,55.8,55.8,77,21.47,0,NA
119,east london,-33.0153,27.9116,63.23,63.23,82,13.65,100,ZA
120,port moresby,-9.4431,147.1797,86,86,62,3.44,40,PG
121,sangmelima,2.9333,11.9833,67.64,67.64,97,0.07,100,CM
122,grand-lahou,5.1367,-5.0242,80.28,80.28,84,6.58,100,CI
123,surt,31.2089,16.5887,81.1,81.1,32,10.02,1,LY
124,yulara,-25.2406,130.9889,71.6,71.6,23,14.97,9,AU
125,bubaque,11.2833,-15.8333,77.76,77.76,68,14.09,65,GW
126,lichuan,30.3,108.85,71.08,71.08,50,1.95,67,CN
127,vardo,70.3705,31.1107,30.67,30.67,93,22.53,100,NO
128,houma,29.5958,-90.7195,78.39,79,87,5.99,0,US
129,bambanglipuro,-7.95,110.2833,82.51,82.51,72,2.71,58,ID
130,zeerust,-25.5369,26.0751,55.4,55.4,100,10.36,54,ZA
131,mehamn,71.0357,27.8492,27.97,27.97,62,19.15,100,NO
132,puerto narino,-3.7703,-70.3831,75.2,75.2,100,4.61,75,CO
133,tiksi,71.6872,128.8694,32.07,32.07,83,5.06,78,RU
135,provideniya,64.3833,-173.3,33.8,33.8,69,4.47,75,RU
136,marneuli,41.4759,44.8089,59,59,94,4.61,40,GE
137,matagami,49.7502,-77.6328,48.2,48.2,53,3.09,20,CA
138,egvekinot,66.3167,-179.1667,25.23,25.23,75,2.37,32,RU
139,redcliffe,-27.2307,153.0973,70.14,72,94,5.75,75,AU
140,bowen,-20.0167,148.2333,78.8,78.8,65,17.27,40,AU
141,san patricio,28.017,-97.5169,77.68,79,94,10.36,90,US
142,oktyabrskiy,54.4815,53.471,38.77,38.77,80,4.34,45,RU
143,broken hill,-31.95,141.4333,73.4,73.4,28,10.36,0,AU
144,crateus,-5.1783,-40.6775,71.01,71.01,94,1.36,98,BR
145,brae,60.3964,-1.353,37.4,37.4,87,9.22,20,GB
146,mareeba,-17,145.4333,78.46,81,61,16.11,40,AU
147,awjilah,29.1081,21.2869,79.2,79.2,14,10.94,2,LY
149,kalisz,51.7611,18.091,51.01,51.01,80,8.7,100,PL
150,saint george,37.1041,-113.5841,84.2,84.2,12,11.5,1,US
151,qandala,11.472,49.8728,84.09,84.09,71,7.31,86,SO
152,mundra,22.85,69.7333,79.52,79.52,76,2.35,2,IN
153,nikolskoye,59.7035,30.7861,29.73,32,74,2.42,0,RU
154,vaitape,-16.5167,-151.75,81.72,81.72,72,6.55,100,PF
155,leningradskiy,69.3833,178.4167,26.58,26.58,82,16.73,99,RU
156,apoldu de jos,45.8667,23.85,48.11,48.2,93,1.14,0,RO
157,nang rong,14.6377,102.7914,78.66,81,100,4,75,TH
158,pula,44.8683,13.8481,55.4,55.4,100,5.75,75,HR
159,bonfim,3.0833,-59.95,80.19,80.19,74,1.88,87,BR
160,yar-sale,66.8333,70.8333,28.29,28.29,96,7.94,100,RU
161,santo domingo,18.5001,-69.9886,74.88,75.99,94,6.91,40,DO
162,chuy,-33.6971,-53.4616,56.1,56.1,79,4.05,0,UY
163,fort frances,48.5999,-93.4003,42.53,44.6,49,14.97,1,CA
165,goundam,16.4145,-3.6708,89.98,89.98,22,2.71,59,ML
166,tulun,54.5611,100.5792,35.29,35.29,93,12.24,100,RU
167,lompoc,34.6391,-120.4579,58.98,64.99,77,12.66,7,US
169,pangkalanbuun,-2.6833,111.6167,88.18,88.18,59,3,51,ID
171,pangnirtung,66.1451,-65.7125,33.31,33.31,80,4.43,100,CA
172,san andres,12.5847,-81.7006,80.6,80.6,74,5.75,20,CO
173,fortuna,40.5982,-124.1573,58.1,60.01,54,11.5,1,US
174,aripuana,-9.1667,-60.6333,71.92,71.92,97,2.51,100,BR
175,hanover,52.3705,9.7332,45.23,46,93,6.91,75,DE
176,den helder,52.9599,4.7593,44.87,45,93,5.75,90,NL
177,half moon bay,37.4636,-122.4286,58.82,69.01,76,13.8,40,US
178,kisangani,0.5167,25.2,70.39,70.39,99,2.42,100,CD
179,kieta,-6.2167,155.6333,82.4,82.4,77,2.59,63,PG
180,seoul,37.5683,126.9778,53.65,55.4,67,2.3,75,KR
181,constitucion,-35.3333,-72.4167,54.99,54.99,87,1.7,18,CL
182,la paz,-16.5,-68.15,39.2,39.2,81,8.05,40,BO
183,boende,-0.2167,20.8667,71.31,71.31,99,2.26,100,CD
184,dehloran,32.6941,47.2679,80.37,80.37,19,6.22,0,IR
185,ixtapa,20.7,-105.2,78.4,78.8,73,9.22,1,MX
186,port keats,-14.25,129.55,89.78,89.78,39,9.93,14,AU
187,izumo,35.3667,132.7667,62.6,62.6,67,31.07,75,JP
188,tuktoyaktuk,69.4541,-133.0374,28.4,28.4,74,13.8,1,CA
189,thibodaux,29.7958,-90.8229,77.68,78.01,85,3,2,US
190,mitu,1.1983,-70.1733,70.93,70.93,99,0.98,98,CO
191,gornopravdinsk,60.05,69.9,40.48,40.48,82,8.68,24,RU
192,vanimo,-2.6741,141.3028,83.88,83.88,79,6.08,43,PG
193,narsaq,60.9167,-46.05,35.6,35.6,80,2.3,20,GL
194,parian dakula,5.5567,120.7719,84.25,84.25,69,7.16,48,PH
195,lagoa,39.05,-27.9833,56.61,56.61,61,5.06,100,PT
196,saskylakh,71.9167,114.0833,32.54,32.54,91,8.46,100,RU
197,georgetown,5.4112,100.3354,82.26,84.2,83,4.61,20,MY
198,bredasdorp,-34.5322,20.0403,48.2,48.2,93,5.75,0,ZA
199,hamilton,39.1834,-84.5333,57.24,59,86,1.01,50,US
200,seymchan,62.8833,152.4333,33.39,33.39,92,0.58,98,RU
201,ayan,56.45,138.1667,31.48,31.48,92,12.3,100,RU
202,alpena,45.0617,-83.4327,55.4,55.4,62,4.61,90,US
203,sembe,1.6481,14.5806,68.23,68.23,91,1.81,66,CG
204,choma,-16.8065,26.9531,61.05,61.05,85,3.09,13,ZM
205,grindavik,63.8424,-22.4338,41,41,81,5.75,90,IS
206,sistranda,63.7256,8.834,33.8,33.8,93,5.75,75,NO
207,waddan,29.1614,16.139,82.9,82.9,6,7.85,86,LY
208,aswan,24.0934,32.907,82.58,82.58,13,9.42,0,EG
209,alto lucero,19.6167,-96.7167,75.96,75.96,75,2.93,100,MX
210,turukhansk,65.8167,87.9833,35.24,35.24,95,16.31,100,RU
211,sydney,-33.8679,151.2073,69.89,72,68,5.75,20,AU
212,faya,18.3851,42.4509,59.9,60.8,82,6.71,40,SA
213,nanortalik,60.1432,-45.2371,36.64,36.64,85,8.84,4,GL
214,namibe,-15.1961,12.1522,74.03,74.03,75,4.38,95,AO
215,ngerengere,-6.75,38.1167,70.72,70.72,97,2.13,100,TZ
216,eureka,40.8021,-124.1637,58.08,59,68,1.01,100,US
217,komsomolskiy,40.4272,71.7189,66.2,66.2,30,4.61,0,UZ
218,lebu,-37.6167,-73.65,54.68,54.68,94,7.7,100,CL
219,kavieng,-2.5744,150.7967,84.67,84.67,69,7.23,40,PG
220,tautira,-17.7333,-149.15,89.6,89.6,62,4.61,40,PF
221,mount isa,-20.7333,139.5,82.4,82.4,39,6.91,2,AU
222,lorengau,-2.0226,147.2712,84.29,84.29,73,3.33,55,PG
223,los llanos de aridane,28.6585,-17.9182,59.29,64.4,72,5.75,0,ES
224,antalaha,-14.9003,50.2788,74.25,74.25,87,6.73,25,MG
226,port blair,11.6667,92.75,83.64,83.64,71,5.97,88,IN
227,yeppoon,-23.1333,150.7333,75.2,75.2,64,12.66,40,AU
228,dickson,36.077,-87.3878,64.89,66,100,9.22,90,US
229,hun,29.1268,15.9477,82.29,82.29,7,7.45,64,LY
230,qaqortoq,60.7167,-46.0333,35.6,35.6,80,2.3,20,GL
231,kaabong,3.4836,34.1492,64.45,64.45,84,6.02,59,UG
233,vestmanna,62.1564,-7.1664,37.4,37.4,65,9.22,90,FO
234,general roca,-39.0333,-67.5833,55.4,55.4,94,2.06,0,AR
235,rognan,67.0953,15.3878,33.3,36,91,6.35,100,NO
236,miri,4.4148,114.0089,84.2,84.2,79,2.3,40,MY
237,ilulissat,69.2167,-51.1,33.8,33.8,75,2.3,100,GL
238,barra patuca,15.8,-84.2833,80.83,80.83,75,16.71,2,HN
239,aberdare,51.7144,-3.4492,40.98,42.01,77,1.01,64,GB
241,cuautepec,16.7,-99,78.48,78.48,70,5.28,54,MX
242,buala,-8.145,159.5921,83.46,83.46,72,5.01,97,SB
243,cururupu,-1.8283,-44.8683,74.52,74.52,91,2.64,99,BR
244,oranjemund,-28.55,16.4333,54.46,54.46,89,11.36,1,NA
245,potsdam,52.3989,13.0657,45.88,46.99,77,1.99,100,DE
246,powell river,49.8496,-124.5361,57.43,57.99,67,6.91,90,CA
247,gushikawa,26.3544,127.8686,71.38,71.6,88,5.75,1,JP
248,chumikan,54.7183,135.315,32.61,32.61,83,7.94,100,RU
249,chase,50.8165,-119.6857,59.32,61,77,2.3,100,CA
250,shunyi,40.125,116.6453,51.89,52,54,6.71,0,CN
251,aksarayskiy,46.7924,48.0119,55.2,55.4,50,13.42,0,RU
252,coquimbo,-29.9533,-71.3436,55.4,55.4,88,4.61,0,CL
253,geraldton,-28.7667,114.6,69.8,69.8,56,17.27,90,AU
254,cascavel,-24.9558,-53.4553,66,66,38,5.48,0,BR
255,churapcha,62.0025,132.4325,34.68,34.68,99,5.68,100,RU
256,fairview,40.8126,-73.999,69.87,73.4,78,11.83,75,US
257,tual,-5.6667,132.75,82.35,82.35,72,4.45,100,ID
258,talnakh,69.4865,88.3972,30.18,30.18,92,3.22,79,RU
259,norman wells,65.282,-126.8329,46.4,46.4,27,5.75,20,CA
260,dongsheng,39.8161,109.9776,47.62,47.62,41,29.15,4,CN
261,razole,16.4833,81.8333,82.4,82.4,83,4.61,40,IN
262,bengkulu,-3.8004,102.2655,77.7,77.7,85,2.33,98,ID
264,pangody,65.85,74.4859,30.27,30.27,92,10.78,100,RU
266,saint-pierre,-21.3393,55.4781,73.62,75.2,78,10.36,90,RE
267,champerico,14.3,-91.9167,66.34,66.99,87,4.5,100,GT
268,kupang,-10.1667,123.5833,82.74,82.74,71,8.68,4,ID
269,kota kinabalu,5.9749,116.0724,86,86,74,3.44,20,MY
270,monkey bay,-14.0728,34.9201,73.47,73.47,82,5.82,13,MW
271,codo,-4.4553,-43.8856,73.27,73.27,98,3.51,100,BR
272,nebolchi,59.1239,33.3454,34.63,34.63,95,3.6,100,RU
273,setermoen,68.861,18.3486,23,23,93,5.75,90,NO
274,chiredzi,-21.05,31.6667,62.74,62.74,82,2.44,0,ZW
275,xichang,27.8964,102.2634,69.67,69.67,39,1.95,94,CN
276,manacapuru,-3.2997,-60.6206,78.8,78.8,94,2.3,75,BR
277,port hardy,50.6996,-127.4199,51.51,53.6,87,3.44,90,CA
278,roma,43.2128,-75.4557,53.4,54,94,6.91,90,US
279,zyryanka,65.75,150.85,33.46,33.46,87,3.24,100,RU
280,kidal,18.4411,1.4078,89.56,89.56,9,5.79,28,ML
281,sivaki,52.6333,126.75,48.79,48.79,44,10.22,3,RU
282,cherskiy,68.75,161.3,20.86,20.86,84,12.01,90,RU
283,kargasok,59.0556,80.8572,42.57,42.57,80,18.37,57,RU
284,pipri,19.8,75.5333,78.8,78.8,50,12.62,40,IN
285,puerto escondido,15.85,-97.0667,80.6,80.6,78,3.44,75,MX
286,zaraza,9.3503,-65.3245,72.82,72.82,91,2.86,100,VE
288,vila velha,-20.3297,-40.2925,71.6,71.6,78,8.05,75,BR
290,gedo,9.0167,37.45,52.74,52.74,96,2.59,100,ET
291,kahului,20.8947,-156.47,75.11,80.6,69,17.27,40,US
292,kavaratti,10.5669,72.642,83.77,83.77,76,9.93,44,IN
293,ayagoz,47.9714,80.4392,60.46,60.46,66,15.19,61,KZ
294,minbu,20.1833,94.8833,89.94,89.94,51,7.85,30,MM
295,salym,60.0625,71.4789,41.13,41.13,78,10.2,46,RU
296,saldanha,-33.0117,17.9442,55.4,55.4,71,9.22,0,ZA
297,carutapera,-1.195,-46.02,75.36,75.36,91,3.65,100,BR
298,bambous virieux,-20.3428,57.7575,75.58,77,83,8.05,75,MU
299,bontang,0.1333,117.5,81.66,81.66,80,1.28,100,ID
300,olafsvik,64.8945,-23.7142,40.55,40.55,76,2.44,85,IS
301,rio grande,-32.035,-52.0986,61.27,61.27,80,6.2,0,BR
302,chirilagua,13.2203,-88.1386,75.15,75.15,72,2.46,18,SV
303,olinda,-8.0089,-34.8553,75.2,75.2,83,3.44,20,BR
304,jacareacanga,-6.2222,-57.7528,72.09,72.09,98,0.76,65,BR
305,micheweni,-4.9667,39.8333,77.72,77.72,87,10,100,TZ
307,antofagasta,-23.65,-70.4,60.8,60.8,82,6.91,0,CL
308,henties bay,-22.116,14.2845,55,55,86,1.99,3,NA
309,zelenoborsk,61.4669,64.0333,36.66,36.66,85,4.45,100,RU
311,fort nelson,58.8053,-122.7002,48.2,48.2,57,2.3,75,CA
312,husavik,66.0449,-17.3389,35.6,35.6,87,3.44,90,IS
313,komatipoort,-25.4332,31.9548,64,64,89,0.87,0,ZA
314,aktau,43.65,51.2,55.4,55.4,54,8.95,0,KZ
315,show low,34.2542,-110.0298,61,61,24,4,3,US
316,altay,47.8667,88.1167,66.18,66.18,37,3.67,10,CN
317,harnosand,62.6323,17.9379,29.05,34,86,9.78,10,SE
318,victoria,22.2855,114.1577,75.87,78.01,76,1.01,100,HK
319,torbay,47.6666,-52.7314,37.78,39,81,8.05,1,CA
320,aksay,47.26,39.87,52.5,53.01,76,13.42,40,RU
321,debno,52.739,14.698,43.05,44.01,81,5.01,82,PL
322,sikonge,-5.6333,32.7667,62.92,62.92,89,5.97,93,TZ
323,paamiut,61.994,-49.6678,36.12,36.12,85,3.33,0,GL
324,derzhavinsk,51.1,66.3167,46.65,46.65,56,5.03,43,KZ
325,glasgow,55.8652,-4.2576,37.13,37.4,87,3.44,9,GB
326,ambilobe,-13.2,49.05,72.09,72.09,91,2.82,29,MG
327,kayerkan,69.3497,87.7602,29.21,29.21,90,4.76,46,RU
328,gidole,5.65,37.3667,56.21,56.21,87,2.39,93,ET
329,carnarvon,-24.8667,113.6333,75.2,75.2,69,16.11,40,AU
331,hofn,64.2539,-15.2082,38.84,38.84,65,6.69,17,IS
332,gamboma,-1.8764,15.8644,72.46,72.46,92,2.98,100,CG
333,norrtalje,59.758,18.705,32.31,36,87,1.99,2,SE
334,zhangjiakou,40.81,114.8794,36.72,36.72,87,2.42,100,CN
335,tommot,58.9564,126.2925,37.24,37.24,95,3.6,100,RU
336,porto tolle,44.9497,12.3245,56.32,57,93,1.99,0,IT
337,chokurdakh,70.6333,147.9167,18.48,18.48,85,4.88,12,RU
338,sao joao da barra,-21.6403,-41.0511,68.23,68.23,85,11.43,80,BR
339,esso,55.9333,158.7,39.78,39.78,91,1.92,38,RU
340,san buenaventura,27.0833,-101.5333,74.66,74.66,39,18.39,100,MX
341,ibra,22.6906,58.5334,79.25,79.25,36,1.68,100,OM
343,dauriya,49.9333,116.8667,37.09,37.09,60,6.51,100,RU
344,sambava,-14.2667,50.1667,74.89,74.89,86,9.55,7,MG
345,nauta,-4.5061,-73.5757,72.77,72.77,98,1.99,89,PE
347,tessalit,20.1986,1.0114,89.29,89.29,9,9.66,18,ML
348,benjamin constant,-4.3831,-70.0311,75.2,75.2,88,5.75,75,BR
350,galesong,-5.3166,119.3661,82.4,82.4,89,2.3,20,ID
351,arraial do cabo,-22.9661,-42.0278,72.09,72.09,70,8.66,14,BR
352,lima,-12.0432,-77.0282,65.73,66.2,82,10.36,20,PE
353,pervomayskoye,43.919,46.7102,54,54,89,7.7,100,RU
354,baltiysk,54.6538,19.911,45.66,46.4,100,2.24,90,RU
355,ezerelis,54.8833,23.6167,48.2,48.2,93,3.44,75,LT
356,nalut,30.3333,10.85,81.25,81.25,18,9.69,39,LY
358,port-gentil,-0.7193,8.7815,82.31,82.31,73,3.42,100,GA
359,ancud,-41.8697,-73.8203,52.9,57,94,18.41,20,CL
360,esperance,-33.8667,121.9,59,59,82,17.27,90,AU
362,abnub,27.2696,31.1511,71.6,71.6,37,6.91,0,EG
363,changping,40.2186,116.2197,51.89,52,54,6.71,0,CN
365,kilindoni,-7.9139,39.6668,78.78,78.78,80,4.43,100,TZ
366,luganville,-15.5333,167.1667,82.38,82.38,65,13.09,72,VU
367,walvis bay,-22.9575,14.5053,52.3,55,87,6.91,0,NA
368,seguela,7.9611,-6.6731,76.91,76.91,80,8.63,96,CI
369,coracora,-15.0333,-73.7833,46.8,46.8,76,2.13,7,PE
370,hambantota,6.1241,81.1185,80.62,80.62,79,6.24,95,LK
371,sakakah,29.9697,40.2064,68,68,18,4.61,0,SA
372,severo-kurilsk,50.6789,156.125,38.46,38.46,81,5.48,19,RU
373,merauke,-8.4667,140.3333,82.58,82.58,72,7.11,98,ID
374,salalah,17.0151,54.0924,82.4,82.4,83,3.44,75,OM
375,isangel,-19.55,169.2667,78.8,78.8,83,8.05,75,VU
376,ketchikan,55.3422,-131.6461,48.2,48.2,93,13.8,90,US
377,diffa,13.3154,12.6113,83.66,83.66,8,9.08,3,NE
378,rampur hat,24.1667,87.7833,89.83,89.83,43,10.49,0,IN
379,bagdarin,54.4333,113.6,37.36,37.36,55,5.3,100,RU
380,sheregesh,52.9209,87.9869,48.02,48.02,98,5.1,100,RU
381,vostok,46.4856,135.8833,54.77,54.77,25,6.76,51,RU
382,panama city,8.9936,-79.5197,81.21,82.4,74,8.05,90,PA
384,clyde river,70.4692,-68.5914,24.8,24.8,100,6.91,90,CA
385,sitka,57.0531,-135.33,46.4,46.4,87,14.97,90,US
386,denpasar,-8.65,115.2167,84.2,84.2,84,9.22,40,ID
387,monywa,22.1167,95.1333,90.07,90.07,45,8.21,2,MM
388,znin,52.8496,17.7199,46.47,48,93,9.22,0,PL
389,tahta,26.7693,31.5021,71.6,71.6,16,6.91,0,EG
391,fukue,32.6881,128.8419,68,68,64,14.97,75,JP
392,kaa-khem,51.6833,94.7333,49.59,49.59,59,1.72,100,RU
393,guangyuan,32.442,105.823,74.88,74.88,57,1.68,0,CN
394,puri,19.8,85.85,84.2,84.2,84,6.91,40,IN
396,trofors,65.5333,13.4063,34.65,35.6,93,4.61,75,NO
397,ngunguru,-35.6167,174.5,70,70,61,1.99,37,NZ
398,manono,-7.3,27.4167,68.5,68.5,91,3.13,99,CD
399,lunavada,23.1333,73.6167,86.7,86.7,31,6.46,54,IN
400,naze,28.3667,129.4833,71.6,71.6,68,3.44,40,JP
401,alofi,-19.0595,-169.9187,84.2,84.2,79,4.61,75,NU
402,saint-claude,46.5,5.8333,49.78,52,84,2.26,100,FR
403,sorland,67.667,12.6934,36.03,36.03,72,19.33,100,NO
405,srednekolymsk,67.45,153.6833,30.58,30.58,94,5.64,99,RU
406,port lincoln,-34.7333,135.8667,72.75,72.75,38,11.83,21,AU
407,bandiagara,14.3501,-3.6104,91.4,91.4,46,2.3,0,ML
408,poco verde,-10.7083,-38.1833,69.84,69.84,94,4.61,23,BR
409,miyang,24.4042,103.4428,70.68,70.68,60,5.82,100,CN
410,baykit,61.67,96.37,39.36,39.36,74,10.63,97,RU
411,nome,64.5011,-165.4064,27.86,28.4,64,16.11,75,US
412,vila franca do campo,37.7167,-25.4333,53.6,53.6,71,6.91,20,PT
413,kurilsk,45.2333,147.8833,37.94,37.94,94,19.46,100,RU
414,grand gaube,-20.0064,57.6608,73.99,73.99,91,5.01,18,MU
415,maloy,61.9353,5.1136,39.65,39.99,52,8.05,13,NO
416,shingu,33.7333,135.9833,64.4,64.4,72,10.36,0,JP
417,fairbanks,64.8378,-147.7164,46.54,48.2,53,11.5,90,US
418,sidrolandia,-20.9319,-54.9614,68,68,52,5.75,0,BR
419,nichinan,31.6,131.3667,73.4,73.4,49,17.27,20,JP
420,marawi,7.9986,124.2928,84.99,84.99,74,3,80,PH
421,baruun-urt,46.6806,113.2792,41.16,41.16,27,13.6,60,MN
422,porosozero,62.7191,32.727,28.74,28.74,77,5.1,52,RU
423,nikolayevsk-na-amure,53.1406,140.73,38.34,38.34,63,4.61,100,RU
424,marakkanam,12.2,79.95,85.44,85.44,74,11.56,93,IN
425,monterey,36.2505,-121.2516,69.08,82.99,63,13.8,1,US
426,harbour breton,47.4833,-55.7983,37.44,37.44,92,7.49,33,CA
427,chapais,49.7834,-74.8492,50,50,50,8.05,1,CA
428,ruteng,-8.6136,120.4721,74.19,74.19,50,0.67,93,ID
429,bairiki,1.3292,172.9752,87.8,87.8,70,10.36,75,KI
430,alghero,40.5589,8.3181,50,50,100,1.14,0,IT
431,gambela,8.25,34.5833,73.69,73.69,81,3.62,100,ET
432,myre,69.1036,15.9492,27.41,30.2,69,14.97,90,NO
433,atambua,-9.1061,124.8925,80.98,80.98,67,2.15,24,ID
434,matara,5.9485,80.5353,77.14,77.14,90,5.41,91,LK
435,thinadhoo,0.5333,72.9333,83.46,83.46,70,4.74,9,MV
436,hervey bay,-25.2986,152.8535,70,70,79,3,99,AU
437,poltavka,54.3663,71.7632,44.89,44.89,63,8.97,0,RU
438,mananjary,-21.2167,48.3333,70.59,70.59,95,4.56,51,MG
439,maxixe,-23.8597,35.3472,70.57,70.57,85,5.19,0,MZ
440,colac,-38.3333,143.5833,63.32,64.99,71,3,0,AU
441,faanui,-16.4833,-151.75,81.72,81.72,72,6.64,100,PF
442,ambovombe,-25.1667,46.0833,70.2,70.2,81,5.41,0,MG
443,aksarka,66.5606,67.7975,23.88,23.88,94,8.95,100,RU
444,le creusot,46.8071,4.4163,47.75,48.2,93,3.44,90,FR
445,wonthaggi,-38.6044,145.5913,68.41,71.01,79,3,9,AU
446,vilcun,-38.65,-72.2333,51.8,51.8,100,2.3,90,CL
447,pevek,69.7008,170.3133,21.61,21.61,85,8.55,100,RU
448,hirara,24.8,125.2833,76.26,77,69,5.75,20,JP
449,sao filipe,14.8961,-24.4956,72.99,72.99,75,6.53,99,CV
450,les cayes,18.2,-73.75,76.05,76.05,76,3.4,12,HT
451,manokwari,-0.8667,134.0833,82.98,82.98,70,2.55,97,ID
452,katsuura,35.1333,140.3,69.48,73,60,4.61,20,JP
453,coahuayana,18.7333,-103.6833,74.57,74.57,84,2.57,53,MX
454,alice springs,-23.7,133.8833,72.1,73.99,26,12.66,0,AU
455,hasaki,35.7333,140.8333,72.86,73.99,46,10.36,20,JP
456,areka,7.0667,37.7,60.58,60.58,93,1.88,100,ET
457,saint-raymond,45.467,-73.6095,58.5,59,72,3.44,100,CA
458,berlevag,70.8578,29.0864,29.55,29.55,73,28.01,100,NO
459,iranshahr,27.2025,60.6848,82.4,82.4,30,11.5,0,IR
460,jilib,0.4883,42.7854,75.99,75.99,90,3.31,91,SO
461,ulladulla,-35.35,150.4667,68,68,56,4.61,20,AU
462,acarau,-2.8856,-40.12,77.99,77.99,82,9.48,100,BR
463,jabinyanah,35.035,10.9081,66.2,66.2,68,12.53,0,TN
464,sechura,-5.5569,-80.8222,70.5,70.5,74,15.19,3,PE
465,samarai,-10.6167,150.6667,81.03,81.03,76,9.08,25,PG
467,nishihara,26.1842,127.7558,71.94,73.4,68,6.91,1,JP
468,severo-yeniseyskiy,60.3725,93.0408,34.54,34.54,88,12.17,100,RU
469,arlit,18.7369,7.3853,85.69,85.69,9,5.44,0,NE
470,marsa matruh,31.3525,27.2453,64.4,64.4,72,5.75,0,EG
471,zhigansk,66.7697,123.3711,31.69,31.69,98,7.2,100,RU
472,severodvinsk,64.5635,39.8302,30.2,30.2,86,4.47,40,RU
473,skawina,49.9752,19.8287,55.4,55.4,71,9.22,75,PL
474,margate,51.3813,1.3862,42.58,43,76,3,16,GB
475,lowestoft,52.4752,1.7516,37.11,41,86,1.01,0,GB
476,udachnyy,66.4167,112.4,28.62,28.62,91,7.16,79,RU
477,byron bay,-28.65,153.6167,65.73,66.99,94,9.22,75,AU
478,atar,20.5169,-13.0499,79.07,79.07,36,4.65,95,MR
479,beringovskiy,63.05,179.3167,29.59,29.59,75,5.73,53,RU
480,kazachinskoye,57.6953,93.2761,41.61,41.61,85,10.45,100,RU
481,oranjestad,12.524,-70.027,80.29,80.6,78,12.66,20,AW
482,lasa,46.6166,10.7002,43.63,46,87,5.75,75,IT
483,neyshabur,36.2133,58.7958,65.77,65.77,55,0.92,100,IR
484,kontagora,10.3999,5.4695,81.27,81.27,47,5.03,97,NG
485,rypefjord,70.6333,23.6667,26.6,26.6,74,18.41,75,NO
486,ostrovnoy,68.0531,39.5131,25.61,25.61,85,19.06,100,RU
487,lyuban,52.7985,28.0048,50.02,50.02,90,12.17,100,BY
488,darab,28.7519,54.5444,68.85,68.85,31,2.24,21,IR
489,bathsheba,13.2167,-59.5167,77,77,61,10.36,20,BB
491,kudahuvadhoo,2.6708,72.8944,82.98,82.98,71,2.46,15,MV
492,fez,34.0372,-4.9998,57.2,57.2,77,3.44,75,MA
493,peniche,39.3558,-9.3811,51.04,52,82,11.36,99,PT
494,burns lake,54.2331,-125.7533,57.2,57.2,54,5.75,99,CA
495,suntar,62.1444,117.6319,37.53,37.53,64,6.04,95,RU
496,muroto,33.2833,134.15,64.4,64.4,68,8.05,20,JP
497,chatham,51.3789,0.5279,38.97,44.01,74,5.3,11,GB
498,barra do garcas,-15.89,-52.2567,72.12,72.12,52,2.89,100,BR
499,aksu,41.1231,80.2644,71.96,71.96,13,5.7,0,CN
500,makakilo city,21.3469,-158.0858,81.64,84.2,54,13.8,90,US
501,lata,40.1629,-8.3327,48.04,51.01,86,1.36,76,PT
503,nuuk,64.1835,-51.7216,28.4,28.4,93,9.22,90,GL
504,cheremukhovo,60.3484,59.9851,33.12,33.12,67,10.42,90,RU
505,tilichiki,60.4667,166.1,32.79,32.79,99,1.12,100,RU
506,kapoeta,4.7717,33.5903,75.87,75.87,71,1.03,77,SS
507,ust-nera,64.5667,143.2,36.46,36.46,98,2.04,99,RU
508,ambalavao,-21.8333,46.9333,60.44,60.44,91,3.91,42,MG
509,amapa,1,-52,70.92,70.92,98,1.39,99,BR
510,bingol,38.8847,40.4939,55.13,55.13,71,4.12,99,TR
511,petropavlovsk-kamchatskiy,53.0452,158.6483,48.2,48.2,57,6.71,45,RU
512,cravo norte,6.3017,-70.2041,74.71,74.71,93,6.06,100,CO
513,piacabucu,-10.4056,-36.4344,77.2,77.2,79,7.61,45,BR
514,haines junction,60.7522,-137.5108,48.2,48.2,49,4.61,100,CA
515,vientiane,17.9667,102.6,78.28,80.01,100,2.3,75,LA
516,dwarka,22.2394,68.9678,81.14,81.14,73,4.54,72,IN
517,chanderi,24.7167,78.1333,89.29,89.29,15,9.04,23,IN
518,huicheng,23.0385,116.2899,75.2,75.2,73,4.47,20,CN
519,marienburg,54.0359,19.0266,45.03,48,100,6.89,100,PL
520,along,28.1667,94.7667,84.85,84.85,32,0.92,6,IN
521,sola,-13.8833,167.55,84.2,84.2,70,9.22,75,VU
522,outlook,51.5001,-107.0513,51.53,53.6,32,8.05,94,CA
523,saint anthony,45.0205,-93.218,62.29,64.4,27,12.66,20,US
524,angoche,-16.2325,39.9086,75.79,75.79,88,3.58,11,MZ
525,mecca,21.4267,39.8261,85.28,85.28,41,5.61,78,SA
526,muros,42.7762,-9.0603,42.46,44.01,91,9.51,6,ES
527,filadelfia,39.9523,-75.1638,67.37,69.01,94,8.05,90,US
528,kurduvadi,18.0833,75.4333,86.52,86.52,37,5.46,2,IN
529,vestmannaeyjar,63.4427,-20.2734,43.23,43.23,78,5.21,97,IS
530,hobyo,5.3505,48.5268,84.07,84.07,69,6.46,64,SO
531,aden,12.7794,45.0367,81.36,81.36,65,4.52,98,YE
532,gazanjyk,39.2446,55.5154,63.23,63.23,67,3.53,6,TM
533,saint-joseph,-21.3667,55.6167,73.54,75.2,78,10.36,90,RE
534,chany,55.3121,76.7647,45.5,45.5,59,9.86,0,RU
535,crotone,39.0851,17.1178,60.01,60.01,52,6.11,16,IT
536,san roque,36.2107,-5.3842,59,59,72,13.8,75,ES
537,palmer,42.1584,-72.3287,57.29,60.01,100,4.61,90,US
538,samokov,42.3333,23.55,56.39,57.2,82,9.22,0,BG
539,aljezur,37.3191,-8.8033,53.11,53.11,79,5.86,100,PT
540,anna paulowna,52.862,4.834,44.78,45,93,5.75,90,NL
541,oyem,1.5995,11.5793,67.28,67.28,98,0.94,100,GA
542,japura,-0.3167,102.35,74.82,74.82,97,2.62,100,ID
543,genhe,50.7833,121.5167,34.57,34.57,91,5.64,100,CN
544,sanchor,24.7553,71.7722,82.51,82.51,45,5.68,59,IN
545,touros,-5.1989,-35.4608,75.2,75.2,94,6.91,20,BR
546,hammerfest,70.6634,23.6821,26.6,26.6,74,18.41,75,NO
548,sartell,45.6216,-94.2069,58.28,60.8,31,8.05,40,US
549,kaeo,-35.1,173.7833,70,70,61,1.99,9,NZ
550,uribia,11.7139,-72.266,81.12,81.12,66,8.59,99,CO
551,paoua,7.2427,16.4406,74.48,74.48,75,4.9,100,CF
552,desaguadero,-16.5656,-69.0417,41.18,41.18,79,5.08,0,PE
553,mangrol,21.1167,70.1167,81.36,81.36,70,11.12,100,IN
554,crato,-7.2342,-39.4094,73.4,73.4,94,4.68,75,BR
555,qostanay,53.1667,63.5833,35.6,35.6,87,6.71,0,KZ
556,roald,62.5833,6.1333,34.95,37.4,75,10.36,50,NO
557,elko,41.0002,-115.5012,70.95,77,15,3.44,1,US
558,straumen,63.8709,11.2999,34.21,37.99,86,4.61,75,NO
559,san policarpo,12.1791,125.5072,81.91,81.91,73,4.97,12,PH
560,lucapa,-8.4192,20.7447,66.15,66.15,97,2.44,100,AO
561,presidencia roque saenz pena,-26.7852,-60.4388,60.01,60.01,84,5.64,0,AR
562,koplik,42.2136,19.4364,57.2,57.2,77,3.44,0,AL
564,venezuela,8,-66,72.57,72.57,86,9.31,100,VE
566,banjar,-8.19,114.9675,84.2,84.2,84,9.22,40,ID
567,gat,31.61,34.7642,63.45,64.4,77,3.44,0,IL
568,karatuzskoye,53.6072,92.8667,43.11,43.11,93,2.21,100,RU
569,pangai,-19.8,-174.35,82.4,82.4,83,4.61,75,TO
570,iquique,-20.2208,-70.1431,64.4,64.4,72,10.36,0,CL
571,huarmey,-10.0681,-78.1522,68.31,68.31,82,9.31,0,PE
572,kochki,54.3358,80.4806,47.34,47.34,63,9.69,29,RU
573,sibolga,1.7427,98.7792,76.77,76.77,90,3.15,100,ID
574,saint-francois,46.4154,3.9054,48.11,48.2,93,3.44,90,FR
575,laguna,38.421,-121.4238,88.34,89.6,16,6.91,1,US
576,praia da vitoria,38.7333,-27.0667,56.68,57.2,82,6.24,20,PT
577,abu samrah,35.3029,37.1841,68.45,68.45,41,4.09,9,SY
578,urbana,40.1106,-88.2073,60.58,62.01,72,8.05,1,US
580,nouadhibou,20.931,-17.0347,66.2,66.2,88,12.66,40,MR
581,lipari,38.4674,14.954,70.5,73.4,23,10.36,0,IT
582,calama,-22.4667,-68.9333,53.6,53.6,28,9.22,0,CL
583,kez,57.8979,53.7152,32.25,32.25,81,4.54,6,RU
584,cartagena del chaira,1.3349,-74.8429,71.65,71.65,98,2.21,96,CO
585,bara,10.3744,10.7288,84.13,84.13,51,2.66,49,NG
586,cauquenes,-35.9671,-72.3225,54.41,54.41,73,2.77,58,CL
587,tenosique,17.4833,-91.4333,95.97,95.97,28,6.49,99,MX
588,okha,53.5739,142.9478,33.35,33.35,80,6.85,100,RU
589,kalmunai,7.4167,81.8167,80.82,80.82,78,0.72,64,LK
590,rocha,-34.4833,-54.3333,54.68,54.68,84,4.65,0,UY
591,kiama,-34.6833,150.8667,70.68,73,62,1.01,0,AU
592,fershampenuaz,53.5202,59.8117,40.14,40.14,74,7.31,21,RU
593,kamakwie,9.5,-12.2333,76.6,76.6,80,3.74,79,SL
594,khuzdar,27.7384,66.6434,72.73,72.73,36,3.51,24,PK
595,flinders,-34.5833,150.8552,73,73,62,1.01,0,AU
596,sovetskiy,61.3614,63.5842,35.49,35.49,94,6.04,100,RU
597,aykhal,66,111.5,26.96,26.96,96,7.7,97,RU
598,yokadouma,3.5167,15.05,67.62,67.62,97,0.92,51,CM
599,ahome,25.9167,-109.1833,77.74,78.8,31,17.27,1,MX
600,maceio,-9.6658,-35.7353,75.2,75.2,94,2.3,20,BR
601,tashtagol,52.7657,87.8894,50.16,50.16,97,6.89,100,RU
602,santa maria,-29.6842,-53.8069,55.4,55.4,94,2.3,0,BR
603,fare,-16.7,-151.0167,81.46,81.46,74,6.42,100,PF
604,umba,66.6871,34.3429,30.97,30.97,87,13.06,100,RU
605,belmonte,-15.8631,-38.8828,73.4,73.4,88,3.44,40,BR
606,college,64.8569,-147.8028,46.35,48.2,53,12.66,75,US
608,luena,-11.7833,19.9167,62.4,62.4,96,3.4,99,AO
609,mount gambier,-37.8333,140.7667,68,68,60,8.05,0,AU
610,jackson,42.4165,-122.8345,82.08,84.2,18,12.66,1,US
611,santander de quilichao,3.0095,-76.4849,66.2,66.2,94,4.61,90,CO
612,ashland,40.8167,-82.2665,52.43,53.6,87,10.36,90,US
613,simao,22.7886,100.9748,72.99,72.99,66,2.75,99,CN
614,halifax,44.6453,-63.5724,45.63,48,87,4.61,100,CA
616,sioux lookout,50.1001,-91.917,37.4,37.4,65,12.66,90,CA
617,diego de almagro,-26.3667,-70.05,57.87,57.87,59,1.79,0,CL
618,armacao de pera,37.1026,-8.357,55.4,55.4,71,8.05,0,PT
619,san juan de los morros,9.9115,-67.3538,32,32,95,2.3,100,VE
620,betare oya,5.6,14.0833,67.84,67.84,89,0.76,100,CM
621,vao,-22.6667,167.4833,75.11,75.11,57,20.58,94,NC
622,dingle,10.9995,122.6711,88,88,42,5.95,6,PH
623,gamba,-2.65,10,76.8,76.8,91,4.07,100,GA
624,stephenville,32.2207,-98.2023,61.61,62.01,95,1.99,100,US
625,dicabisagan,17.0818,122.4157,84.24,84.24,60,3.69,11,PH
627,ekangala,-25.6962,28.7492,58.32,60.01,88,13.8,65,ZA
628,paita,-5.0892,-81.1144,69.64,69.64,79,14.29,2,PE
629,otradnoye,59.7775,30.8181,29.61,32,74,2.08,0,RU
630,puerto leguizamo,-0.1934,-74.7819,71.47,71.47,98,0.74,100,CO
